[
  {
    "id": 0,
    "isVerified": true,
    "type": "ambulance",
    "name": "PSC SES 119",
    "organization": "Dinkes Kab Sleman",
    "logo": "https://res.cloudinary.com/djzrlqubf/image/upload/v1705743489/butuhbantuan/p6ldfcxxrjmxvnwjwkin.jpg",
    "ambulanceType": "emergency",
    "hospitalType": null,
    "subdistrict": "Tridadi",
    "regency": "Sleman",
    "province": "Yogyakarta",
    "coordinates": {
      "lat": -7.718647,
      "long": 110.3539151
    },
    "fullAddress": "Beran Kidul, Tridadi, Kec. Sleman, Kabupaten Sleman",
    "contact": {
      "phone": "09210000",
      "whatsapp": "6287800001111"
    },
    "standby": 24
  },
  {
    "id": 1,
    "isVerified": true,
    "type": "ambulance",
    "name": "PMI Sleman",
    "organization": "Palang Merah Indonesia",
    "logo": "https://res.cloudinary.com/djzrlqubf/image/upload/v1705744061/butuhbantuan/xteksibif5uschl27nbe.png",
    "ambulanceType": "emergency",
    "hospitalType": null,
    "subdistrict": "Tridadi",
    "regency": "Sleman",
    "province": "Yogyakarta",
    "coordinates": {
      "lat": -7.7063721,
      "long": 110.3450278
    },
    "fullAddress": "Jl. Dr. Radjimin, Sucen, Triharjo, Kec. Sleman, Kabupaten Sleman",
    "contact": {
      "phone": "09210000",
      "whatsapp": "6287800001111"
    },
    "standby": 24
  },
  {
    "id": 2,
    "isVerified": true,
    "type": "ambulance",
    "name": "RS JIH",
    "organization": "JIH Hospital",
    "logo": "https://res.cloudinary.com/djzrlqubf/image/upload/v1705744168/butuhbantuan/uvthle5jxewt0hrt9gtg.webp",
    "ambulanceType": "emergency",
    "hospitalType": "B",
    "subdistrict": "Depok",
    "regency": "Sleman",
    "province": "Yogyakarta",
    "coordinates": {
      "lat": -7.757570523582871,
      "long": 110.40357141068982
    },
    "fullAddress": "Mlati, Sleman",
    "contact": {
      "phone": "02744463535",
      "whatsapp": "6287800001111"
    },
    "standby": 24
  },
  {
    "id": 3,
    "isVerified": true,
    "type": "hospital",
    "name": "S-EAS",
    "organization": "RSUP Dr. Sardjito",
    "logo": "https://res.cloudinary.com/djzrlqubf/image/upload/v1705744167/butuhbantuan/kbdrsh3xethifawer0w5.webp",
    "ambulanceType": "emergency",
    "hospitalType": "A",
    "subdistrict": "Mlati",
    "regency": "Sleman",
    "province": "Yogyakarta",
    "coordinates": {
      "lat": -7.76834241532119,
      "long": 110.37372731398645
    },
    "fullAddress": "Mlati, Sleman",
    "contact": {
      "phone": "09210000",
      "whatsapp": "6287800001111"
    },
    "standby": 24
  },
  {
    "id": 4,
    "isVerified": false,
    "type": "ambulance",
    "name": "Ambulans MPD Peduli",
    "organization": "Yayasan MPD Peduli",
    "logo": "https://res.cloudinary.com/djzrlqubf/image/upload/v1705744433/butuhbantuan/iicqfihmm4uocius8cbe.png",
    "ambulanceType": "transport",
    "hospitalType": "null",
    "subdistrict": "Mlati",
    "regency": "Sleman",
    "province": "Yogyakarta",
    "coordinates": {
      "lat": -7.760489,
      "long": 110.373584
    },
    "fullAddress": "Mlati, Sleman",
    "contact": {
      "phone": "09210000",
      "whatsapp": "6287800001111"
    },
    "standby": 24
  },
  {
    "id": 5,
    "isVerified": false,
    "type": "ambulance",
    "name": "Ambulans Panda",
    "organization": "Panda Ambulance",
    "logo": null,
    "ambulanceType": "transport",
    "hospitalType": "null",
    "subdistrict": "Mlati",
    "regency": "Sleman",
    "province": "Yogyakarta",
    "coordinates": {
      "lat": -7.728430922171148,
      "long": 110.36464826118574 
    },
    "fullAddress": "Mlati, Sleman",
    "contact": {
      "phone": "09210000",
      "whatsapp": "6287800001111"
    },
    "standby": 24
  }
]